[
  {
    "id": 2,
    "title": "買い物",
    "done": false,
    "priority": 2,
    "location": {
      "name": "春日井市, 愛知県, 日本",
      "latitude": 35.273804,
      "longitude": 137.007459,
      "timezone": "GMT"
    },
    "deadline": "2025-12-28",
    "candidate_date": "2025-12-15",
    "created_at": "2025-12-14T18:09:23.107697"
  },
  {
    "id": 3,
    "title": "k",
    "done": false,
    "priority": 2,
    "location": {
      "name": "愛知県, 日本",
      "latitude": 34.9991645,
      "longitude": 137.254574,
      "timezone": "GMT"
    },
    "deadline": "2025-12-15",
    "candidate_date": null,
    "created_at": "2025-12-14T18:12:05.914619"
  },
  {
    "id": 4,
    "title": "go",
    "done": false,
    "priority": 1,
    "location": {
      "name": "名古屋市, 愛知県, 日本",
      "latitude": 35.1851045,
      "longitude": 136.8998438,
      "timezone": "GMT"
    },
    "deadline": "2025-12-16",
    "candidate_date": "2025-12-16",
    "created_at": "2025-12-14T18:19:35.451667"
  },
  {
    "id": 5,
    "title": "1",
    "done": false,
    "priority": 2,
    "location": {
      "name": "Mississippi River, United States",
      "latitude": 39.548248,
      "longitude": -91.153628,
      "timezone": "GMT"
    },
    "deadline": "2025-12-29",
    "candidate_date": "2025-12-17",
    "created_at": "2025-12-14T18:24:39.380257"
  },
  {
    "id": 6,
    "title": "a",
    "done": false,
    "priority": 2,
    "location": null,
    "deadline": null,
    "candidate_date": null,
    "created_at": "2025-12-18T15:51:45.100385"
  },
  {
    "id": 9,
    "title": "eee",
    "done": false,
    "priority": 3,
    "location": {
      "name": "Naha küla, Räpina vald, Põlva maakond, 64411, Eesti",
      "latitude": 58.1773741,
      "longitude": 27.4576502,
      "timezone": "GMT"
    },
    "deadline": "2025-12-27",
    "candidate_date": null,
    "created_at": "2025-12-26T02:17:36.102318"
  },
  {
    "id": 10,
    "title": "iii",
    "done": false,
    "priority": 1,
    "location": {
      "name": "長久手市, 愛知県, 日本",
      "latitude": 35.1838064,
      "longitude": 137.0487181,
      "timezone": "GMT"
    },
    "deadline": "2025-12-28",
    "candidate_date": "2025-12-28",
    "created_at": "2025-12-26T02:26:17.005718"
  }
]